{"type":"FeatureCollection", "features":[
{"type":"Feature","geometry":{"type":"Point","coordinates":[30.381219988000055,-2.280083111999943]},"properties":{"OBJECTID_1":1,"OBJECTID_2":1,"OBJECTID":56,"NEW_PROVIN":"EST","DISTRICT_N":"NGOMA","NEW_SECTOR":"JARAMA","NOMFORMATI":"Jarama","UNIT_TYPE":2,"PBFPHASE":1,"Y":-2.280083,"X":30.38122,"TYPE":"Health Centre"}},
{"type":"Feature","geometry":{"type":"Point","coordinates":[30.543679988000065,-2.1626331119999804]},"properties":{"OBJECTID_1":2,"OBJECTID_2":2,"OBJECTID":57,"NEW_PROVIN":"EST","DISTRICT_N":"NGOMA","NEW_SECTOR":"KIBUNGO","NOMFORMATI":"Kibungo","UNIT_TYPE":2,"PBFPHASE":1,"Y":-2.162633,"X":30.54368,"TYPE":"Health Centre"}},
{"type":"Feature","geometry":{"type":"Point","coordinates":[30.539419988000077,-2.1659501109999724]},"properties":{"OBJECTID_1":3,"OBJECTID_2":3,"OBJECTID":58,"NEW_PROVIN":"EST","DISTRICT_N":"NGOMA","NEW_SECTOR":"KIBUNGO","NOMFORMATI":"Kibungo HD","UNIT_TYPE":1,"PBFPHASE":1,"Y":-2.16595,"X":30.53942,"TYPE":"District Hospital"}},
{"type":"Feature","geometry":{"type":"Point","coordinates":[30.37287998800008,-2.1107501119999483]},"properties":{"OBJECTID_1":4,"OBJECTID_2":4,"OBJECTID":59,"NEW_PROVIN":"EST","DISTRICT_N":"NGOMA","NEW_SECTOR":"MUGESERA","NOMFORMATI":"Nyange","UNIT_TYPE":2,"PBFPHASE":1,"Y":-2.11075,"X":30.37288,"TYPE":"Health Centre"}},
{"type":"Feature","geometry":{"type":"Point","coordinates":[30.58807998900005,-2.1997501109999575]},"properties":{"OBJECTID_1":5,"OBJECTID_2":5,"OBJECTID":60,"NEW_PROVIN":"EST","DISTRICT_N":"NGOMA","NEW_SECTOR":"MURAMA","NOMFORMATI":"Rukira","UNIT_TYPE":2,"PBFPHASE":1,"Y":-2.19975,"X":30.58808,"TYPE":"Health Centre"}},
{"type":"Feature","geometry":{"type":"Point","coordinates":[30.488849989000073,-2.2731661109999663]},"properties":{"OBJECTID_1":6,"OBJECTID_2":6,"OBJECTID":61,"NEW_PROVIN":"EST","DISTRICT_N":"NGOMA","NEW_SECTOR":"MUTENDERI","NOMFORMATI":"Mutenderi","UNIT_TYPE":2,"PBFPHASE":1,"Y":-2.273166,"X":30.48885,"TYPE":"Health Centre"}},
{"type":"Feature","geometry":{"type":"Point","coordinates":[30.555949989000055,-2.0814001109999367]},"properties":{"OBJECTID_1":7,"OBJECTID_2":7,"OBJECTID":62,"NEW_PROVIN":"EST","DISTRICT_N":"NGOMA","NEW_SECTOR":"REMERA","NOMFORMATI":"Remera","UNIT_TYPE":2,"PBFPHASE":1,"Y":-2.0814,"X":30.55595,"TYPE":"Health Centre"}},
{"type":"Feature","geometry":{"type":"Point","coordinates":[30.63961998900004,-2.1354331109999407]},"properties":{"OBJECTID_1":8,"OBJECTID_2":8,"OBJECTID":63,"NEW_PROVIN":"EST","DISTRICT_N":"NGOMA","NEW_SECTOR":"RUKIRA","NOMFORMATI":"Gituku","UNIT_TYPE":2,"PBFPHASE":1,"Y":-2.135433,"X":30.63962,"TYPE":"Health Centre"}},
{"type":"Feature","geometry":{"type":"Point","coordinates":[30.326449988000036,-2.1750331119999373]},"properties":{"OBJECTID_1":9,"OBJECTID_2":9,"OBJECTID":64,"NEW_PROVIN":"EST","DISTRICT_N":"NGOMA","NEW_SECTOR":"RUKUMBERI","NOMFORMATI":"Rukumberi","UNIT_TYPE":2,"PBFPHASE":1,"Y":-2.175033,"X":30.32645,"TYPE":"Health Centre"}},
{"type":"Feature","geometry":{"type":"Point","coordinates":[30.467179988000055,-2.077767111999947]},"properties":{"OBJECTID_1":10,"OBJECTID_2":10,"OBJECTID":65,"NEW_PROVIN":"EST","DISTRICT_N":"NGOMA","NEW_SECTOR":"RURENGE","NOMFORMATI":"Kirwa","UNIT_TYPE":2,"PBFPHASE":1,"Y":-2.077767,"X":30.46718,"TYPE":"Health Centre"}},
{"type":"Feature","geometry":{"type":"Point","coordinates":[30.385379988000068,-2.2165831119999666]},"properties":{"OBJECTID_1":11,"OBJECTID_2":11,"OBJECTID":66,"NEW_PROVIN":"EST","DISTRICT_N":"NGOMA","NEW_SECTOR":"SAKE","NOMFORMATI":"Rukoma Sake","UNIT_TYPE":2,"PBFPHASE":1,"Y":-2.216583,"X":30.38538,"TYPE":"Health Centre"}},
{"type":"Feature","geometry":{"type":"Point","coordinates":[30.39934998800004,-2.1863831119999304]},"properties":{"OBJECTID_1":12,"OBJECTID_2":12,"OBJECTID":67,"NEW_PROVIN":"EST","DISTRICT_N":"NGOMA","NEW_SECTOR":"ZAZA","NOMFORMATI":"Sangaza","UNIT_TYPE":2,"PBFPHASE":1,"Y":-2.186383,"X":30.39935,"TYPE":"Health Centre"}},
{"type":"Feature","geometry":{"type":"Point","coordinates":[30.433749989000034,-2.155717111999934]},"properties":{"OBJECTID_1":13,"OBJECTID_2":13,"OBJECTID":68,"NEW_PROVIN":"EST","DISTRICT_N":"NGOMA","NEW_SECTOR":"ZAZA","NOMFORMATI":"Zaza","UNIT_TYPE":2,"PBFPHASE":1,"Y":-2.155717,"X":30.43375,"TYPE":"Health Centre"}}
]}
